item,ID,itemLabel,stateLabel,countyLabel,latitude,longitude,inception,height in ,focalHeight,range in nauticalmiles,lightCharacteristic,heritageDesignation,image,yearOfTransfer,"
proceeds",satImage,noSatImg,Conveyd Lightstaition
http://www.wikidata.org/entity/Q4849167,Q4849167,Baker Island Light,Maine,Cranberry Isles,44.24120861,-68.19901167,1828,13,32,10,Fl W 10s,http://www.wikidata.org/entity/Q19558910,http://commons.wikimedia.org/wiki/Special:FilePath/Baker%20Island%20Light%20Station.JPG,2011,,,,federalTransfer
http://www.wikidata.org/entity/Q810448,Q810448,Bass Harbor Head Light,Maine,Hancock County,44.221806,-68.337278,1858,10,17,13,Oc R 4s,http://www.wikidata.org/entity/Q19558910,http://commons.wikimedia.org/wiki/Special:FilePath/Bass%20harbor%20head%20light%2020041002%20123635%201.1504x1000.jpg,2020,,,,federalTransfer
http://www.wikidata.org/entity/Q5084156,Q5084156,Charleston Light,South Carolina,Sullivan's Island,32.75791667,-79.84325,1960,43,50,26,Fl(2) W 30s,,http://commons.wikimedia.org/wiki/Special:FilePath/Sullivans-Lighthouse.jpg,2008,,,,federalTransfer
http://www.wikidata.org/entity/Q5476370,Q5476370,Fowey Rocks Light,Florida,Miami-Dade County,25.59061111,-80.09666667,1887,34,34,10,"Fl W 10s , 2 R sectors",http://www.wikidata.org/entity/Q19558910,http://commons.wikimedia.org/wiki/Special:FilePath/Fowey%20Lighthouse.jpg,2012,,,x,federalTransfer
http://www.wikidata.org/entity/Q6672695,Q6672695,Long Island Head Light,Massachusetts,Boston,42.330216,-70.957673,1819,16,"36,5",6,Fl W 2.5s,http://www.wikidata.org/entity/Q19558910,http://commons.wikimedia.org/wiki/Special:FilePath/Long%20Island%20Head%20Lighthouse%20Boston%201900.JPG,2010,,,,federalTransfer
http://www.wikidata.org/entity/Q6896769,Q6896769,Moloka'i Light,Hawaii,Kalawao County,21.212222,-156.9725,1909,42,65,13,Fl W 10s,http://www.wikidata.org/entity/Q19558910,http://commons.wikimedia.org/wiki/Special:FilePath/General%20View%20Of%20Lighthouse%20From%20Northwest%20-%20Moloka%27i%20Light%20Station%2C%20Lighthouse%2C%20Makanalua%2CMoloka%27i%20Island%2C%20Kalaupapa%2C%20Kalawao%20County%2C%20HI%20HABS%20HI%2C3-KALA.V%2C5-A-6%20%28CT%29.tif,2006,,,,federalTransfer
http://www.wikidata.org/entity/Q6936687,Q6936687,Munising Front Range Light,Michigan,Munising,46.4151,-86.6611,1908,58,79,13,F R,,http://commons.wikimedia.org/wiki/Special:FilePath/Munising%20Front%20Range%20Light.jpg,2014,,,,federalTransfer
http://www.wikidata.org/entity/Q7354843,Q7354843,Rock of Ages Light,Michigan,Keweenaw County,47.866667,-89.313333,1908,36,36,17,Fl(2) W 10s,http://www.wikidata.org/entity/Q19558910,http://commons.wikimedia.org/wiki/Special:FilePath/Rock%20of%20Ages%20Light%20%28Keweenaw%20County%2C%20Michigan%29.jpg,2013,,,x,federalTransfer
http://www.wikidata.org/entity/Q4724302,Q4724302,Algoma Pierhead Light,Wisconsin,Algoma,44.6069,-87.4294,1908,"12,5","14,5",16,Iso R 6s,,http://commons.wikimedia.org/wiki/Special:FilePath/AlgomaWisconsinPierheadLighthouse2008.jpg,2016,,,,LocalGov
http://www.wikidata.org/entity/Q4878098,Q4878098,Beaver Island Harbor Light,Michigan,St. James Township,45.7428,-85.5086,1856,12,12,10,Iso R 6s,,http://commons.wikimedia.org/wiki/Special:FilePath/Whiskey%20Point.jpg,2005,,,,LocalGov
http://www.wikidata.org/entity/Q5084261,Q5084261,Charlevoix South Pier Light Station,Michigan,Charlevoix,45.320278,-85.265,1948,12,13,10,Fl R 4s,http://www.wikidata.org/entity/Q19558910,http://commons.wikimedia.org/wiki/Special:FilePath/Charlevoix%20South%20Pier%20Light%20Station%20%28July%202019%29.jpg,2008,,,,LocalGov
http://www.wikidata.org/entity/Q5095636,Q5095636,Chicago Harbor Light,Illinois,Chicago,41.889444,-87.590556,1893,20,25,24,Fl R 5s,http://www.wikidata.org/entity/Q2222981,http://commons.wikimedia.org/wiki/Special:FilePath/Chicago-lighthouse.jpg,2009,,,,LocalGov
http://www.wikidata.org/entity/Q5161081,Q5161081,Conimicut Light,Rhode Island,Warwick,41.716944,-71.345833,1883,"17,7",17,8,"FI W 2.5s, R sector",http://www.wikidata.org/entity/Q19558910,http://commons.wikimedia.org/wiki/Special:FilePath/Conimicut%20Lighthouse%202007.jpg,2004,,,x,LocalGov
http://www.wikidata.org/entity/Q5337606,Q5337606,Edgartown Harbor Light,Massachusetts,Dukes county,41.39111,-70.50306,1828,"13,5",13,5,Fl R 6s,http://www.wikidata.org/entity/Q19558910,http://commons.wikimedia.org/wiki/Special:FilePath/Edgartown%20Harbor%20Light%20-%20New%20Paint%201988.jpg,2013,,,,LocalGov
http://www.wikidata.org/entity/Q5471242,Q5471242,Fort Gratiot Light,Michigan,St. Clair County,43.006306,-82.422472,1825,26,25,18,Fl G 6s,http://www.wikidata.org/entity/Q19558910,http://commons.wikimedia.org/wiki/Special:FilePath/Fort%20Gratiot%20Light%202015.jpg,2010,,,,LocalGov
http://www.wikidata.org/entity/Q14716104,Q14716104,Frankfort Light,Michigan,Frankfort,44.6306,-86.2522,1873,20,22,16,F W,http://www.wikidata.org/entity/Q19558910,http://commons.wikimedia.org/wiki/Special:FilePath/LightningVolt%20Frankfort%20Lighthouse.jpg,2017,,,,LocalGov
http://www.wikidata.org/entity/Q5528593,Q5528593,Gay Head Light,Massachusets,Aquinnah,41.348444,-70.834944,1799,"15,5",52,20,Al WR 7.5s,http://www.wikidata.org/entity/Q4742563,http://commons.wikimedia.org/wiki/Special:FilePath/Gay%20Head%20Lighthouse%20at%20New%20Location%20-%20June%2C%202015.jpg,2015,,,,LocalGov
http://www.wikidata.org/entity/Q16840774,Q16840774,Grand Haven South Pierhead Entrance Light,Michigan,Grand Haven,43.056944444,-86.255833333,1839,11,13,17,Fl R 10s,,http://commons.wikimedia.org/wiki/Special:FilePath/GrandHavenFrontLight.jpg,2012,,,,LocalGov
http://www.wikidata.org/entity/Q5654559,Q5654559,Harbor Beach Light,Michigan,Harbor Beach,43.845556,-82.630833,1858,14,16,12,Al WR 10s,http://www.wikidata.org/entity/Q19558910,http://commons.wikimedia.org/wiki/Special:FilePath/Harbor%20Beach%20Light.jpg,2010,,,,LocalGov
http://www.wikidata.org/entity/Q6397941,Q6397941,Kewaunee Pierhead Lighthouse,Wisconsin,Kewaunee,44.4572,-87.4931,1891,13,"13,5",15,F W,http://www.wikidata.org/entity/Q19558910,http://commons.wikimedia.org/wiki/Special:FilePath/USCGkewauneeSep.JPG,2011,,,,LocalGov
http://www.wikidata.org/entity/Q6698798,Q6698798,Ludington Light,Michigan,Ludington,43.953611,-86.469444,1871,17,17,5,Iso G 6s,http://www.wikidata.org/entity/Q19558910,http://commons.wikimedia.org/wiki/Special:FilePath/LudingtonLight.jpg,2007,,,,LocalGov
http://www.wikidata.org/entity/Q12061470,Q12061470,Manistee Pierhead lights,Michigan,Manistee,44.2517,-86.3464,1870,12,17,15,Iso W 6s,http://www.wikidata.org/entity/Q19558910,http://commons.wikimedia.org/wiki/Special:FilePath/Manistee%20North%20Pierhead%20Lighthouse.JPG,2011,,,,LocalGov
http://www.wikidata.org/entity/Q6817255,Q6817255,Menominee Pier Light,Michigan,Menominee,45.097222222,-87.585833333,1927,10,14,9,Oc R 4s,http://www.wikidata.org/entity/Q19558910,http://commons.wikimedia.org/wiki/Special:FilePath/MenomineeLight.jpg,2008,,,,LocalGov
http://www.wikidata.org/entity/Q7108231,Q7108231,Oswego Harbor West Pierhead Light,New York,Oswego County,43.4733,-76.5168,1880,12,"17,5",9,Fl RW 5s,http://www.wikidata.org/entity/Q19558910,http://commons.wikimedia.org/wiki/Special:FilePath/OswegoLighthouse2.jpg,2008,,,,LocalGov
http://www.wikidata.org/entity/Q7208119,Q7208119,Point Pinos Lighthouse,California,Pacific Grove,36.6334,-121.934,1855,13,27,17,Oc W 4s,http://www.wikidata.org/entity/Q19558910,http://commons.wikimedia.org/wiki/Special:FilePath/Point%20Pinos%20Light%20during%20reconstruction%20%282013%29.jpg,2006,,,,LocalGov
http://www.wikidata.org/entity/Q7231028,Q7231028,Port Washington Breakwater Light,Wisconsin,Port Washington,43.3853,-87.8597,1889,18,24,8,Fl R 6s,,http://commons.wikimedia.org/wiki/Special:FilePath/Port%20Washington%20pier%20light.jpg,2016,,,,LocalGov
http://www.wikidata.org/entity/Q7260562,Q7260562,Punta Tuna Light,Puerto Rico,Maunabo,17.98830556,-65.88541667,1892,15,34,16,Fl(2) W 30s,http://www.wikidata.org/entity/Q19558910,http://commons.wikimedia.org/wiki/Special:FilePath/Punta%20Tuna%20Lighthouse.JPG,2014,,,,LocalGov
http://www.wikidata.org/entity/Q1687043,Q1687043,Rondout Light,New York,Kingston,41.920833333,-73.9625,1838,15,16,9,Fl W 6s,http://www.wikidata.org/entity/Q19558910,http://commons.wikimedia.org/wiki/Special:FilePath/Kingston%20-%20Rondout%202%20Lighthouse%202011.jpg,2002,,,,LocalGov
http://www.wikidata.org/entity/Q7611130,Q7611130,Stepping Stones Light,New York,New York,40.824333,-73.77475,1877,14,14,8,Oc G 4s,http://www.wikidata.org/entity/Q19558910,http://commons.wikimedia.org/wiki/Special:FilePath/Stepping%20Stones%20Light%202006.jpg,2008,,,,LocalGov
http://www.wikidata.org/entity/Q7621171,Q7621171,Straitsmouth Island Light,Massachusetts,Rockport,42.6623,-70.5881,1835,11,14,6,Fl G 6s,http://www.wikidata.org/entity/Q19558910,http://commons.wikimedia.org/wiki/Special:FilePath/Straitsmouth%20Island%20Lighthouse%20MA.JPG,2013,,,,LocalGov
http://www.wikidata.org/entity/Q108901001,Q108901001,Thomas Point Shoal Light,Maryland,Anne Arundel County,38.903389,-76.438570,1875,39,13,16,Fl W 5s (two R sectors),,http://commons.wikimedia.org/wiki/Special:FilePath/Thomas_Point_Shoal_Light_House_%2821601320915%29.jpg,2004,,,x,LocalGov
http://www.wikidata.org/entity/Q7986262,Q7986262,West Point Light,Washington,Seattle,47.661972,-122.435667,1881,7,8,13,Alt WR 10s,http://www.wikidata.org/entity/Q19558910,http://commons.wikimedia.org/wiki/Special:FilePath/Fort%20Lawton%20West%20Point%20Lighthouse%2003.jpg,2005,,,,LocalGov
http://www.wikidata.org/entity/Q4734801,Q4734801,Alpena Light,Michigan,Alpena,45.060278,-83.423056,1875,10,13,12,Fl R 6s,http://www.wikidata.org/entity/Q19558910,http://commons.wikimedia.org/wiki/Special:FilePath/Lighthouse%20at%20Alpena%20MI%202005-09.jpeg,2013,,,,ngo
http://www.wikidata.org/entity/Q726301,Q726301,Ashtabula Harbor Light,Ohio,Ashtabula County,41.9186,-80.7959,1905,12,16,8,Fl Y 6s,http://www.wikidata.org/entity/Q19558910,http://commons.wikimedia.org/wiki/Special:FilePath/Ashtabula%20harbor%20light.JPG,2007,,,,ngo
http://www.wikidata.org/entity/Q4849264,Q4849264,Bakers Island Light,Massachusetts,Salem,42.536444,-70.785917,1791,18,34,14,Al WR 20s,http://www.wikidata.org/entity/Q19558910,http://commons.wikimedia.org/wiki/Special:FilePath/Bakers%20island%20light.jpg,2014,,,,ngo
http://www.wikidata.org/entity/Q4957291,Q4957291,Brandywine Shoal Light,New Jersey,Cape May County,38.9864,-75.1135,1828,14,18,13,"FI W 10s, R sector",http://www.wikidata.org/entity/Q19558910,http://commons.wikimedia.org/wiki/Special:FilePath/BrandywineShoalLight.jpg,2013,,,x,ngo
http://www.wikidata.org/entity/Q15207418,Q15207418,Cape San Juan Light,Puerto Rico,Fajardo,18.38111111,-65.61825,1882,14,79,26,Fl W 15s,http://www.wikidata.org/entity/Q19558910,http://commons.wikimedia.org/wiki/Special:FilePath/Las%20Cabezas%20de%20San%20Juan%20Lighthouse2.jpg,2010,,,,ngo
http://www.wikidata.org/entity/Q3308122,Q3308122,Currituck Beach Lighthouse,North Carolina,Corolla,36.376667,-75.830833,1875,49,64,18,Fl W 20s,http://www.wikidata.org/entity/Q19558910,http://commons.wikimedia.org/wiki/Special:FilePath/99000911%20currituck.jpg,2010,,,,ngo
http://www.wikidata.org/entity/Q5244123,Q5244123,DeTour Reef Light,Michigan,Chippewa County,45.948889,-83.903056,1931,19,23,13,Fl W 10s,http://www.wikidata.org/entity/Q19558910,http://commons.wikimedia.org/wiki/Special:FilePath/DeTour%20Reef%20Light%20Station%20-%20Michigan.jpg,2010,,,x,ngo
http://www.wikidata.org/entity/Q5317656,Q5317656,Duxbury Pier Light,Massachusetts,Plymouth County,41.987425,-70.64854722,1871,14,11,6,Fl(2) R 5s,http://www.wikidata.org/entity/Q19558910,http://commons.wikimedia.org/wiki/Special:FilePath/Duxbury%20Pier%20light%20house%20in%20Plymouth%20harbor.jpg,2016,,,,ngo
http://www.wikidata.org/entity/Q5398653,Q5398653,Esopus Meadows Light,New York,Ulster County,41.868389,-73.941611,1839,17,18,6,Fl W 2.5s,http://www.wikidata.org/entity/Q19558910,http://commons.wikimedia.org/wiki/Special:FilePath/Esopus%20Meadows%20Lighthouse%202011.jpg,2002,,,,ngo
http://www.wikidata.org/entity/Q5419772,Q5419772,Execution Rocks Light,New York,New Rochelle,40.878139,-73.737861,1849,18,19,15,Fl W 10s,http://www.wikidata.org/entity/Q19558910,http://commons.wikimedia.org/wiki/Special:FilePath/Line4046%20-%20Flickr%20-%20NOAA%20Photo%20Library.jpg,2009,,,x,ngo
http://www.wikidata.org/entity/Q2790673,Q2790673,Five Finger Islands Light,Alaska,Petersburg Borough,57.270556,-133.630278,1902,"20,7",25,18,Fl W 10s,http://www.wikidata.org/entity/Q19558910,http://commons.wikimedia.org/wiki/Special:FilePath/USCGfivefinger1935.JPG,2004,,,x,ngo
http://www.wikidata.org/entity/Q16840779,Q16840779,Grand Haven South Pierhead Inner Light,Michigan,Grand Haven,43.057222222,-86.253888888,1881,15,16,3,Oc R 4s,,http://commons.wikimedia.org/wiki/Special:FilePath/Grand%20Haven%20Lights.jpg,2012,,,,ngo
http://www.wikidata.org/entity/Q5598355,Q5598355,Grays Harbor Light,Washington,Grays Harbor County,46.8884,-124.117,1889,33,37,19,Alt WR 30s,http://www.wikidata.org/entity/Q19558910,http://commons.wikimedia.org/wiki/Special:FilePath/GraysHarborWestportLightNpsPhoto2000.jpg,2004,,,,ngo
http://www.wikidata.org/entity/Q5617748,Q5617748,Gull Rock Light Station,Michigan,Keweenaw County,47.417222,-87.663611,1867,14,15,6,Fl(2) W 5s,http://www.wikidata.org/entity/Q19558910,http://commons.wikimedia.org/wiki/Special:FilePath/GullrocksMI.jpg,2005,,,,ngo
http://www.wikidata.org/entity/Q5654695,Q5654695,Harbor of Refuge Light,Delaware,Sussex County,38.8146,-75.0924,1908,23,22,16,"FI W 5s, R sector",http://www.wikidata.org/entity/Q1129142,http://commons.wikimedia.org/wiki/Special:FilePath/Harbor%20of%20Refuge%20lighthouse%20USACE%202011-12-14.jpg,2004,,,,ngo
http://www.wikidata.org/entity/Q5880958,Q5880958,Holland Harbor Light,Michigan,Holland,42.7727,-86.2124,1872,13,15,14,Alt WR 10s,http://www.wikidata.org/entity/Q19558910,http://commons.wikimedia.org/wiki/Special:FilePath/Holland%20Harbor%20Light%20-%20Holland%2C%20Michigan.jpg,2008,,,,ngo
http://www.wikidata.org/entity/Q5898379,Q5898379,Hooper Island Light,Maryland,Dorchester County,38.25625,-76.24980556,1901,"10,5",19,9,"Fl W, 6s",http://www.wikidata.org/entity/Q19558910,http://commons.wikimedia.org/wiki/Special:FilePath/Hooper.Island.Light.jpg,2009,,,x,ngo
http://www.wikidata.org/entity/Q5945338,Q5945338,Huntington Harbor Light,New York,Lloyd Harbor,40.910722,-73.431306,1857,13,12,9,Iso W 6s,http://www.wikidata.org/entity/Q19558910,http://commons.wikimedia.org/wiki/Special:FilePath/Lloydharbor.JPG,2012,,,,ngo
http://www.wikidata.org/entity/Q5997383,Q5997383,Ile Aux Galets,Michigan,Ile Aux Galets,45.676389,-85.171667,1888,18,18,11,Fl W 6s,http://www.wikidata.org/entity/Q19558910,http://commons.wikimedia.org/wiki/Special:FilePath/Ileauxgalets.JPG,2016,,,,ngo
http://www.wikidata.org/entity/Q29096978,Q29096978,Keweenaw Waterway Lower Entrance Light,Michigan,Torch Lake Township,46.96888889,-88.43111111,1919,19,21,9,Fl W 6s,http://www.wikidata.org/entity/Q19558910,http://commons.wikimedia.org/wiki/Special:FilePath/Keweenaw%20Waterway%20Lower%20Entrance%20Light.jpg,2016,,,,ngo
http://www.wikidata.org/entity/Q6651703,Q6651703,Little River Light,Maine,Washington County,44.650885,-67.19209556,1846,12,17,13,Fl W 6s,http://www.wikidata.org/entity/Q19558910,http://commons.wikimedia.org/wiki/Special:FilePath/CutlerME%20LittleRiverLight.jpg,2002,,,,ngo
http://www.wikidata.org/entity/Q6861683,Q6861683,Milwaukee Breakwater Light,Wisconsin,Milwaukee,43.027,-87.882,1926,16,20,14,Fl R 10s,http://www.wikidata.org/entity/Q19558910,http://commons.wikimedia.org/wiki/Special:FilePath/MilwaukeeBreakwaterLighthouse.jpg,2013,,,,ngo
http://www.wikidata.org/entity/Q6942767,Q6942767,Muskegon South Pierhead Light,Michigan,Muskegon,43.2267,-86.3415,1851,"14,5",15,6,Fl R 4s,http://www.wikidata.org/entity/Q19558910,http://commons.wikimedia.org/wiki/Special:FilePath/Laurentian%20in%20Muskegon%20%2814174248817%29.jpg,2010,,,,ngo
http://www.wikidata.org/entity/Q7009889,Q7009889,New London Harbor Light,Connecticut,New London,41.31666,-72.08997,1760,27,27,14,"Iso W 6s, R sector",http://www.wikidata.org/entity/Q19558910,http://commons.wikimedia.org/wiki/Special:FilePath/New%20london%20harbor%20light%20%2814422085964%29.jpg,2009,,,,ngo
http://www.wikidata.org/entity/Q12063850,Q12063850,New London Ledge Light,Connecticut,Groton,41.306121,-72.077286,1909,18,18,15,Fl(4) WR 30s,http://www.wikidata.org/entity/Q19558910,http://commons.wikimedia.org/wiki/Special:FilePath/New%20London%20Ledge%20Lighthouse.jpg,2014,,,,ngo
http://www.wikidata.org/entity/Q7207272,Q7207272,Poe Reef Light,Michigan,Cheboygan County,45.695,-84.361667,1929,17,22,9,Iso W 2s,http://www.wikidata.org/entity/Q19558910,http://commons.wikimedia.org/wiki/Special:FilePath/Poe%20Reef%20Light.JPG,2004,,,x,ngo
http://www.wikidata.org/entity/Q3560917,Q3560917,Point Retreat Light,Alaska,Juneau,58.411111,-134.953056,1904,"7,6",19,9,Fl W 6s,http://www.wikidata.org/entity/Q19558910,http://commons.wikimedia.org/wiki/Special:FilePath/USCGpointretreatWith.JPG,2003,,,x,ngo
http://www.wikidata.org/entity/Q7230493,Q7230493,Port Austin Light,Michigan,Port Austin,44.0833,-82.9833,1878,18,23,7,Fl W 6s,http://www.wikidata.org/entity/Q19558910,http://commons.wikimedia.org/wiki/Special:FilePath/Port%20Austin%20Reef.jpg,2013,,,x,ngo
http://www.wikidata.org/entity/Q7278919,Q7278919,Race Rock Light,New York,Long Island,41.2435,-72.047,1878,14,20,16,Fl R 10s,http://www.wikidata.org/entity/Q19558910,http://commons.wikimedia.org/wiki/Special:FilePath/Race%20Rock%20Light%2C%20north.jpg,2013,,,x,ngo
http://www.wikidata.org/entity/Q425986,Q425986,Robbins Reef Light,New Jersey,Bayonne,40.657364,-74.065355,1839,14,17,7,Fl G 6s,http://www.wikidata.org/entity/Q19558910,http://commons.wikimedia.org/wiki/Special:FilePath/Robbinsreef2003.jpg,2011,,,,ngo
http://www.wikidata.org/entity/Q2856088,Q2856088,Sentinel Island Light,Alaska,Juneau,58.546111,-134.920278,1902,13,26,16,Fl W 10s,http://www.wikidata.org/entity/Q19558910,http://commons.wikimedia.org/wiki/Special:FilePath/Sentinel%20Island%20Light%2006.jpg,2006,,,x,ngo
http://www.wikidata.org/entity/Q14716282,Q14716282,South Manitou Island Lighthouse,Michigan,Michigan,45.0072,-86.0939,1840,20,32,18,F W,http://www.wikidata.org/entity/Q19558910,http://commons.wikimedia.org/wiki/Special:FilePath/Southmanitoulighthouse.jpg,2004,,,,ngo
http://www.wikidata.org/entity/Q7587188,Q7587188,St. Augustine Light,Florida,St. Augustine,29.8856,-81.2886,1824,50,49,19,FFl W 30s,http://www.wikidata.org/entity/Q19558910,http://commons.wikimedia.org/wiki/Special:FilePath/St.%20Augustine%20Lighthouse%20Main%20View.jpg,2002,,,,ngo
http://www.wikidata.org/entity/Q7591684,Q7591684,St. Simons Island Light,Georgia,Glynn County,31.133056,-81.391667,1810,32,32,15,"FF W, FI W 60s",http://www.wikidata.org/entity/Q19558910,http://commons.wikimedia.org/wiki/Special:FilePath/Lighthouse%20and%20museum%2C%20St.%20Simons%2C%20GA%2C%20USA.JPG,2004,,,,ngo
http://www.wikidata.org/entity/Q2331864,Q2331864,Stannard Rock Light,Michigan,Marquette County,47.183611,-87.218056,1883,30,31,18,Fl W 6s,http://www.wikidata.org/entity/Q19558910,http://commons.wikimedia.org/wiki/Special:FilePath/Stannard%20Rock%20Light%20USCG.jpg,2015,,,x,ngo
http://www.wikidata.org/entity/Q7621986,Q7621986,Stratford Shoal Light,Connecticut,Fairfield County,41.059806,-73.101306,1837,11,18,13,Fl W 5s,http://www.wikidata.org/entity/Q19558910,http://commons.wikimedia.org/wiki/Special:FilePath/Stratford%20Shoal%20Lighthouse%2C%20Long%20Island%20Sound%2C%20Bridgeport%20vicinity%20%28Fairfield%20County%2C%20Connecticut%29.jpg,2016,,,x,ngo
http://www.wikidata.org/entity/Q7728362,Q7728362,The Cuckolds Light,Maine,Lincoln County,43.7795,-69.65,1892,"14,5",18,12,Fl(2) W 6s,http://www.wikidata.org/entity/Q19558910,http://commons.wikimedia.org/wiki/Special:FilePath/Cuckolds%20Lighthouse%20Maine1975.JPG,2006,,,,ngo
http://www.wikidata.org/entity/Q14716827,Q14716827,Toledo Harbor Light,Ohio,Lucas County,41.7178,-83.4214,1901,21,22,10,Iso W 6s,http://www.wikidata.org/entity/Q19558910,http://www.wikidata.org/entity/Q19558910,2006,,,x,ngo
http://www.wikidata.org/entity/Q7859692,Q7859692,Tybee Island Lighthouse and Museum,Georgia,Tybee Island,32.022222222,-80.845638888,1736,44,44,16,F W,,http://commons.wikimedia.org/wiki/Special:FilePath/Tybeelight.jpg,2002,,,,ngo
http://www.wikidata.org/entity/Q2566433,Q2566433,Whaleback Light,Maine,Kittery,43.058816,-70.69638,1830,15,18,14,Fl(2) W 10s,http://www.wikidata.org/entity/Q19558910,http://commons.wikimedia.org/wiki/Special:FilePath/WhalebackLight2007.jpg,2009,,,,ngo
http://www.wikidata.org/entity/Q33320700,Q33320700,Cleveland East Pierhead Light,Ohio,Cleveland,41.510277777,-81.715277777,1911,"9,5",12,7,Iso G 6s,http://www.wikidata.org/entity/Q19558910,http://commons.wikimedia.org/wiki/Special:FilePath/Cleveland%20East%20Pierhead%20Light.JPG,2009,"$10,000",,,publicSale
http://www.wikidata.org/entity/Q4928091,Q4928091,Bloody Point Bar Light,Maryland,Queen Anne's County,38.833,-76.391,1882,12,16,7,"FI W 6s, R sectors",,http://commons.wikimedia.org/wiki/Special:FilePath/BLOODY%20POINT%20LIGHT%2072%20500.jpg,2007,"$100,000",,x,publicSale
http://www.wikidata.org/entity/Q7995386,Q7995386,White Shoal Light,Michigan,Emmet County,45.842222,-85.135278,1910,37,38,17,Fl W 5s,http://www.wikidata.org/entity/Q19558910,http://commons.wikimedia.org/wiki/Special:FilePath/White%20Shoal%20Lighthouse.JPG,2016,"$110,009",,x,publicSale
http://www.wikidata.org/entity/Q5475901,Q5475901,Fourteen Foot Shoal Light,Michigan,Cheboygan,45.6798,-84.435,1929,17,17,9,Oc W 4s,http://www.wikidata.org/entity/Q19558910,http://commons.wikimedia.org/wiki/Special:FilePath/Fourteen%20Foot%20Shoal%20Light%20-%20Cheboygan%20Michigan.jpg,2017,"$133,333",,x,publicSale
http://www.wikidata.org/entity/Q6749931,Q6749931,Manistique East Breakwater Light,Michigan,Manistique,45.9446,-86.2472,1916,11,15,10,Iso R 6s,http://www.wikidata.org/entity/Q19558910,http://commons.wikimedia.org/wiki/Special:FilePath/Manistique%20East%20Breakwater%20Lighthouse13.jpg,2013,"$15,000",,,publicSale
http://www.wikidata.org/entity/Q5876983,Q5876983,Hog Island Shoal Light,Rhode Island,Newport County,41.632306,-71.273222,1886,18,"16,5",12,Iso W 6s,http://www.wikidata.org/entity/Q19558910,http://commons.wikimedia.org/wiki/Special:FilePath/Hog%20Island%20Shoal%20Light%20in%202007.jpg,2007,"$165,001",,x,publicSale
http://www.wikidata.org/entity/Q6391315,Q6391315,Kenosha North Pier Light,Wisconsin,Kenosha,42.5888,-87.8086,1906,15,15,11,Iso R 6s,http://www.wikidata.org/entity/Q19558910,http://commons.wikimedia.org/wiki/Special:FilePath/Kenosha%20North%20Pier%20Lighthouse.jpg,2011,"$17,000",,,publicSale
http://www.wikidata.org/entity/Q7545272,Q7545272,Smith Point Light,Virginia,Northumberland County,37.879722,-76.183889,1897,16,16,16,Fl W 10s,http://www.wikidata.org/entity/Q7934314,http://commons.wikimedia.org/wiki/Special:FilePath/Smith%20Point%20Lighthouse.jpg,2005,"$170,000",,x,publicSale
http://www.wikidata.org/entity/Q7571308,Q7571308,Southwest Ledge Light,Connecticut,New Haven County,41.231389,-72.923611,1877,14,17,13,Fl R 5s,http://www.wikidata.org/entity/Q19558910,http://commons.wikimedia.org/wiki/Special:FilePath/SouthwestLedge%20NewHaven.jpg,2016,"$180,002",,x,publicSale
http://www.wikidata.org/entity/Q5266004,Q5266004,Detroit River Light,Michigan,Monroe County,42.00075,-83.140681,1875,15,17,10,Fl(2) W 6s,http://www.wikidata.org/entity/Q19558910,http://commons.wikimedia.org/wiki/Special:FilePath/Bar%20Point%20Shoal%20-%20Detroit%20River%20Light%20MI.JPG,2017,"$188,500",,x,publicSale
http://www.wikidata.org/entity/Q5132124,Q5132124,Cleveland East Ledge Light,Massachusetts,Falmouth,41.630964,-70.694179,1943,21,23,15,Fl W 10s,http://www.wikidata.org/entity/Q19558910,http://commons.wikimedia.org/wiki/Special:FilePath/Cleveland%20Ledge%20Lighthouse%20MA.JPG,2013,"$190,000",,x,publicSale
http://www.wikidata.org/entity/Q7288480,Q7288480,Ram Island Ledge Light,Maine,Portland,43.63147222,-70.18736111,1905,22,"23,5",8,Fl(2) W 6s,http://www.wikidata.org/entity/Q19558910,http://commons.wikimedia.org/wiki/Special:FilePath/Ram%20Island%20Ledge%20Light.jpg,2011,"$190,000",,,publicSale
http://www.wikidata.org/entity/Q1581328,Q1581328,West Bank Light,Now York,Staten Island,40.538,-74.042806,1901,17,21,12,Iso R 6s,http://www.wikidata.org/entity/Q19558910,http://commons.wikimedia.org/wiki/Special:FilePath/West%20Bank%20%28NY%29%20Light.JPG,2010,"$195,000",,x,publicSale
http://www.wikidata.org/entity/Q5270818,Q5270818,Diamond Head Light,North Carolina,Oahu,21.256944,-157.809444,1898,17,45,14,Oc(2) WR 10s,http://www.wikidata.org/entity/Q19558910,http://commons.wikimedia.org/wiki/Special:FilePath/Diamond%20Head%20Lighthouse%2C%20Honolulu%2C%20USA-4Aug2009.jpg,2012,"$20,000",,,publicSale
http://www.wikidata.org/entity/Q5475898,Q5475898,Fourteen Foot Bank Light,Delaware,Kent County,39.0482,-75.1836,1886,12,18,13,"Fl W 9s, R Sector",http://www.wikidata.org/entity/Q19558910,http://commons.wikimedia.org/wiki/Special:FilePath/14footbk.jpg,2007,"$200,000",,x,publicSale
http://www.wikidata.org/entity/Q6646553,Q6646553,Liston Range Rear Light,Delaware,New Castle County,39.5239,-75.639,1877,37,54,19,F W,http://www.wikidata.org/entity/Q19558910,http://commons.wikimedia.org/wiki/Special:FilePath/Liston%20Range%20Rear%20Light.jpg,2013,"$22,003",,,publicSale
http://www.wikidata.org/entity/Q6869325,Q6869325,Minot's Ledge Light,Massachusetts,Norfolk County,42.269722,-70.759083,1850,27,26,10,Fl(1+4+3) W 45s,http://www.wikidata.org/entity/Q19558910,http://commons.wikimedia.org/wiki/Special:FilePath/Minot%20light.gif,2014,"$222,000",,x,publicSale
http://www.wikidata.org/entity/Q6496156,Q6496156,Latimer Reef Light,New York,Long Island,41.304507,-71.933316,1804,15,17,9,Fl W 6s,http://www.wikidata.org/entity/Q19558910,http://commons.wikimedia.org/wiki/Special:FilePath/Latimer%20Reef%20Light%201.jpg,2010,"$225,000",,x,publicSale
http://www.wikidata.org/entity/Q7158764,Q7158764,Peck Ledge Light,Connecticut,Norwalk,41.0783,-73.3683,1906,16,19,5,Fl G 2.5s,http://www.wikidata.org/entity/Q19558910,http://commons.wikimedia.org/wiki/Special:FilePath/Pecks%20Ledge%20Lighthouse%20Norwalk%20CT.jpg,2015,"$235,000",,x,publicSale
http://www.wikidata.org/entity/Q5328070,Q5328070,East Charity Shoal Light,New York,Cape Vincent,44.0367,-76.4817,1877,12,16,9,Fl R 4s,http://www.wikidata.org/entity/Q19558910,http://commons.wikimedia.org/wiki/Special:FilePath/Eastcharityshoal.JPG,2009,"$25,501",,x,publicSale
http://www.wikidata.org/entity/Q7417418,Q7417418,Sandy Point Shoal Light,Maryland,Anne Arundel County,39.016,-76.38458333,1883,11,16,9,Fl W 6s,http://www.wikidata.org/entity/Q19558910,http://commons.wikimedia.org/wiki/Special:FilePath/Sandy%20Point%20Shoal%20Light%20MD1.jpg,2006,"$250,000",,,publicSale
http://www.wikidata.org/entity/Q7102309,Q7102309,Orient Point Light,New York,Suffolk County,41.163442,-72.223615,1899,16,20,17,Fl W 5s,http://www.wikidata.org/entity/Q19558910,http://commons.wikimedia.org/wiki/Special:FilePath/Orientpointlight.jpg,2013,"$252,000",,,publicSale
http://www.wikidata.org/entity/Q6487483,Q6487483,Lansing Shoals Light Station,Michigan,Mackinac County,45.903333,-85.561667,1928,18,21,14,Fl W 10s,http://www.wikidata.org/entity/Q19558910,http://commons.wikimedia.org/wiki/Special:FilePath/Lansingshoal.jpg,2017,"$26,000",,x,publicSale
http://www.wikidata.org/entity/Q4852868,Q4852868,Baltimore Harbor Light,Maryland,Anne Arundel County,39.05919,-76.399,1908,16,16,5,"FI W 2.5s, R sector",http://www.wikidata.org/entity/Q19558910,http://commons.wikimedia.org/wiki/Special:FilePath/Baltimore%20Light.jpg,2006,"$260,000",,x,publicSale
http://www.wikidata.org/entity/Q5584112,Q5584112,Goose Rocks Light,Maine,North Haven,44.13541667,-68.83066667,1890,"15,5","15,5",11,Fl W 6s,http://www.wikidata.org/entity/Q19558910,http://commons.wikimedia.org/wiki/Special:FilePath/Goose%20Rocks%20Light.jpg,2006,"$27,000",,,publicSale
http://www.wikidata.org/entity/Q14716228,Q14716228,Minneapolis Shoal Light Station,Michigan,Delta County,45.5361,-86.9983,1934,21,25,27,Fl W 5s,http://www.wikidata.org/entity/Q19558910,http://commons.wikimedia.org/wiki/Special:FilePath/Minneapolisshoal.jpg,2017,"$28,000",,x,publicSale
http://www.wikidata.org/entity/Q7162651,Q7162651,Penfield Reef Light,Connecticut,Fairfield County,41.116667,-73.221667,1874,35,51,15,Fl R 6s,http://www.wikidata.org/entity/Q19558910,http://commons.wikimedia.org/wiki/Special:FilePath/Penfield%20Reef%20Lighthouse%20Postcard%201913.jpg,2017,"$282,345",,x,publicSale
http://www.wikidata.org/entity/Q5641964,Q5641964,Halfway Rock Light,Maine,Cumberland County,43.65577778,-70.036785,1871,23,"23,5",19,Fl R 5s,http://www.wikidata.org/entity/Q19558910,http://commons.wikimedia.org/wiki/Special:FilePath/Halfway%20Rock%20Light.JPG,2014,"$283,000",,x,publicSale
http://www.wikidata.org/entity/Q3378379,Q3378379,Saybrook Breakwater Light,Connecticut,Old Saybrook,41.2632,-72.34276,1886,15,18,3,Fl G 6s,http://www.wikidata.org/entity/Q19558910,http://commons.wikimedia.org/wiki/Special:FilePath/Avery%20Point%20Lighthouse%202000.jpg,2015,"$290,000",,,publicSale
http://www.wikidata.org/entity/Q6750266,Q6750266,Manitowoc Breakwater Light,Wisconsin,Manitowoc,44.0928,-87.6436,1918,12,16,13,Iso W 6s,,http://commons.wikimedia.org/wiki/Special:FilePath/ManitowocLight.jpg,2011,"$30,000",,,publicSale
http://www.wikidata.org/entity/Q14692599,Q14692599,Duluth Harbor North Pier Light,Minnesota,Duluth,46.781,-92.0881,1910,11,13,11,Iso R 4s,http://www.wikidata.org/entity/Q19558910,http://commons.wikimedia.org/wiki/Special:FilePath/Duluth%20North%20Pier%20Light%20HAER.png,2009,"$31,000",,,publicSale
http://www.wikidata.org/entity/Q7018936,Q7018936,Newport News Middle Ground Light,Virginia,Newport News,36.945,-76.391667,1891,21,18,12,"Fl R, 10s",http://www.wikidata.org/entity/Q7934314,http://commons.wikimedia.org/wiki/Special:FilePath/USCGnewportnewslight.JPG,2005,"$31,000",,x,publicSale
http://www.wikidata.org/entity/Q6650223,Q6650223,Little Gull Island Light,New York,Suffolk County,41.20638889,-72.10694444,1806,25,28,18,Fl(2) W 15s,,http://commons.wikimedia.org/wiki/Special:FilePath/Littlegullmodern.JPG,2012,"$381,000",,,publicSale
http://www.wikidata.org/entity/Q81643507,Q81643507,Conneaut Harbor Light,Ohio,Ashtabula County,41.979722222,-80.558055555,1905,12,16,13,Fl WR 5s,http://www.wikidata.org/entity/Q19558910,http://commons.wikimedia.org/wiki/Special:FilePath/Conneaut%20Harbor%20West%20Breakwater%20light.jpg,2011,"$46,000",,,publicSale
http://www.wikidata.org/entity/Q6695163,Q6695163,Lubec Channel Light,Maine,Washington County,44.84205194,-66.97661722,1890,12,16,6,Fl W 6s,http://www.wikidata.org/entity/Q19558910,http://commons.wikimedia.org/wiki/Special:FilePath/Lubec%20Channel%20Lighthouse%20Maine.JPG,2007,"$46,000",,,publicSale
http://www.wikidata.org/entity/Q7628986,Q7628986,Sturgeon Bay Canal Light,Wisconsin,Door County,44.795,-87.3133,1899,30,32,17,Fl R 10s,http://www.wikidata.org/entity/Q19558910,http://commons.wikimedia.org/wiki/Special:FilePath/Door%20County%20Trip%20-%20June%202013%20-%20Sturgeon%20Bay%20Ship%20Canal%20Light%20%289209950418%29.jpg,2014,"$48,500",,,publicSale
http://www.wikidata.org/entity/Q6776447,Q6776447,Martin Reef Light Station,Michigan,Mackinac County,45.913333,-84.148333,1927,16,20,13,Fl W/R 10s,http://www.wikidata.org/entity/Q19558910,http://commons.wikimedia.org/wiki/Special:FilePath/Martin%20Reef%20Light%20Station%20%28Mackinac%20County%2C%20Michigan%29.jpg,2018,"$52,777",,x,publicSale
http://www.wikidata.org/entity/Q5598372,Q5598372,Grays Reef Light Station,Michigan,Emmet County,45.766667,-85.153333,1891,20,25,15,Fl R 10s,http://www.wikidata.org/entity/Q19558910,http://commons.wikimedia.org/wiki/Special:FilePath/Graysreef.jpg,2017,$52.777,,x,publicSale
http://www.wikidata.org/entity/Q4944488,Q4944488,Borden Flats Light,Massachusetts,Massachusetts,41.704441,-71.174396,1875,15,14,11,Fl W 2.5s,http://www.wikidata.org/entity/Q19558910,http://commons.wikimedia.org/wiki/Special:FilePath/Borden%20Flats%20Light.jpg,2010,"$56,569",,,publicSale
http://www.wikidata.org/entity/Q7559332,Q7559332,Sombrero Key Light,Florida,Monroe County,24.627906,-81.111606,1858,43,42,15,Fl(5) W 60s,http://www.wikidata.org/entity/Q19558910,http://commons.wikimedia.org/wiki/Special:FilePath/USCGSombrero%20key%201971%20sm.jpg,2022,"$575,000",,x,publicSale
http://www.wikidata.org/entity/Q7497932,Q7497932,Ship John Shoal Light,New Jersey,Cumberland County,39.305278,-75.376667,1877,14,15,12,"Fl W 5s, R sector",http://www.wikidata.org/entity/Q19558910,http://commons.wikimedia.org/wiki/Special:FilePath/Ship%20john%20shoal%20light.JPG,2012,"$60,200",,x,publicSale
http://www.wikidata.org/entity/Q7784202,Q7784202,Thimble Shoal Light,Virginia,Q49231,37.014486,-76.239853,1872,17,16,18,Fl W 10s,http://www.wikidata.org/entity/Q7934314,http://commons.wikimedia.org/wiki/Special:FilePath/Thimble%20Shoals%20Light.jpg,2005,"$65,000",,x,publicSale
http://www.wikidata.org/entity/Q7371061,Q7371061,Round Island Passage Light,Michigan,Mackinac County,45.8433,-84.615,1947,18,22,14,Fl R 4s,http://www.wikidata.org/entity/Q19558910,http://commons.wikimedia.org/wiki/Special:FilePath/Round%20Island%20Passage%20Light.jpg,2014,"$65,500",,,publicSale
http://www.wikidata.org/entity/Q7095063,Q7095063,Ontonagon Light,Michigan,Ontonagon,46.873611,-89.318611,1853,10,10,11,,http://www.wikidata.org/entity/Q19558910,http://commons.wikimedia.org/wiki/Special:FilePath/Ontonagon%20Lighthouse.jpg,2019,"$7,500",,,publicSale
http://www.wikidata.org/entity/Q5430706,Q5430706,Fairport Harbor West Breakwater Light,Ohio,Fairport Harbor,41.7679,-81.2812,1925,13,17,13,Iso W 6s,http://www.wikidata.org/entity/Q19558910,http://commons.wikimedia.org/wiki/Special:FilePath/Fairport%20Harbor%20Lighthouse.jpg,2011,"$71,010",,,publicSale
http://www.wikidata.org/entity/Q16895957,Q16895957,North Manitou Shoal Light Station,Michigan,Leland Township,45.02,-85.9567,1935,19,24,12,Fl R 15s,http://www.wikidata.org/entity/Q19558910,http://commons.wikimedia.org/wiki/Special:FilePath/North%20Manitou%20Shoal%20Light%20Station%20%28Leelanau%20County%2C%20Michigan%29.jpg,2017,"$73,000",,x,publicSale
http://www.wikidata.org/entity/Q8029912,Q8029912,Wolf Trap Light,Virginia,Mathews County,37.39,-76.19,1821,16,16,14,Fl W 15s,http://www.wikidata.org/entity/Q7934314,http://commons.wikimedia.org/wiki/Special:FilePath/USCGwolftraplight1960.jpg,2006,"$75,000",,x,publicSale
http://www.wikidata.org/entity/Q4943563,Q4943563,Boon Island Light,Maine,York,43.12144944,-70.47642194,1811,41,42,19,Fl W 5s,http://www.wikidata.org/entity/Q19558910,http://commons.wikimedia.org/wiki/Special:FilePath/Boon%20Island%20Lighthouse%20%28cropped%29.jpg,2014,"$78,000",,x,publicSale
http://www.wikidata.org/entity/Q5002608,Q5002608,Butler Flats Light,Massachusets,New Bedford,41.60375,-70.894444,1898,16,16,6,Fl W 4s,http://www.wikidata.org/entity/Q19558910,http://commons.wikimedia.org/wiki/Special:FilePath/Butler%20Flats%20Light%2C%20New%20Bedford%2C%20MA.jpg,2016,"$80,000",,,publicSale
http://www.wikidata.org/entity/Q3378389,Q3378389,Sharps Island Light,Maryland,Talbot County,38.6391,-76.3757,1838,14,Retired,,,http://www.wikidata.org/entity/Q19558910,http://commons.wikimedia.org/wiki/Special:FilePath/Sharps%20Island%20Light%202009.jpg,2008,"$80,000",,x,publicSale
http://www.wikidata.org/entity/Q7415820,Q7415820,Sand Key Light,Florida,Monroe County,24.463889,-81.879444,1827,40,33,11,Fl(2) W 15s with R sectors,http://www.wikidata.org/entity/Q19558910,http://commons.wikimedia.org/wiki/Special:FilePath/Sand%20Key%20Light%202005.jpg#,2021,"$86,000",,x,publicSale
http://www.wikidata.org/entity/Q4744980,Q4744980,American Shoal Light,Florida,Monroe County,24.52511722,-81.51941611,1880,34,6,14,Fl(4) W 60s,http://www.wikidata.org/entity/Q19558910,http://commons.wikimedia.org/wiki/Special:FilePath/Americanshoal.JPG,2022,"$860,000",,x,publicSale
http://www.wikidata.org/entity/Q5598744,Q5598744,Great Beds Light,New Jersey,South Amboy,40.48666667,-74.25333333,1880,19,19,6,Fl R 6s,http://www.wikidata.org/entity/Q19558910,http://commons.wikimedia.org/wiki/Special:FilePath/Greatbedslight.jpg,2011,"$90,000",,,publicSale
http://www.wikidata.org/entity/Q15253289,Q15253289,Miah Maull Shoal Light,New Jersey,Cumberland County,39.12666667,-75.20972222,1913,14,18,12,"Oc W 4s, R sector",http://www.wikidata.org/entity/Q19558910,http://commons.wikimedia.org/wiki/Special:FilePath/MIAH%20MAUL%20SHOAL%20LIGHTHOUSE%2C%20CUMBERLAND%20COUNTY%2C%20NJ.jpg,2015,"$90,000",,x,publicSale
http://www.wikidata.org/entity/Q7363153,Q7363153,Romer Shoal Light,New Jersey,Highlands,40.513006,-74.01352,1838,16,16,15,Fl(2) W 15s,http://www.wikidata.org/entity/Q19558910,http://commons.wikimedia.org/wiki/Special:FilePath/Romer%20Shoal%20Light%20Station.jpg,2011,"$90,000",,x,publicSale
http://www.wikidata.org/entity/Q15256004,Q15256004,Moose Peak Light Shalen’s New Home,Maine,Washington County,44.47458056,-67.53199167,1827,"17,5",22,20,Fl W 30s,,http://commons.wikimedia.org/wiki/Special:FilePath/Moose%20Peak%20Lighthouse%20Maine.JPG,2012,"$93,500",,,publicSale
http://www.wikidata.org/entity/Q14537875,Q14537875,The Graves Light,Massachusetts,Boston,42.3649,-70.8691,1903,34,29,15,Fl(2) W 12s,http://www.wikidata.org/entity/Q19558910,http://commons.wikimedia.org/wiki/Special:FilePath/The%20Graves%20Light%2C%20Boston%20%28493403%29%20%2810772613144%29.jpg,2013,"$933,888",,x,publicSale
http://www.wikidata.org/entity/Q5181676,Q5181676,Craighill Channel Lower Range Front Light,Maryland,Baltimore County,39.18861389,-76.3944,1873,20,7,6,"Fl W, 3 s with R sector",http://www.wikidata.org/entity/Q19558910,http://commons.wikimedia.org/wiki/Special:FilePath/CRAIGHILL%20CH%20FRONT%20LOWER%2072%20500.jpg,2018,"$96,000",,x,publicSale
http://www.wikidata.org/entity/Q7193314,Q7193314,Pigeon Point Lighthouse,California,San Mateo County,37.18166667,-122.39388889,1872,35,45,24,Fl W 10s,http://www.wikidata.org/entity/Q2933979,http://commons.wikimedia.org/wiki/Special:FilePath/Pigeon%20Point%20Lighthouse%20%282016%29.jpg,2011,,,,stateGov
http://www.wikidata.org/entity/Q7208173,Q7208173,Point Sur Lighthouse,California,Monterey County,36.305,-121.898611,1889,15,83,24,Fl W 15s,http://www.wikidata.org/entity/Q19558910,http://commons.wikimedia.org/wiki/Special:FilePath/Point%20Sur%20Light%20Station%20%E2%80%93%20lantern%20room%20from%20above.jpg,2005,,,,stateGov
http://www.wikidata.org/entity/Q7855087,Q7855087,Turkey Point Light,Maryland,Kent County,39.4499,-76.0084,1833,"11,5",39,10,Fl W 6s,http://www.wikidata.org/entity/Q19558910,http://commons.wikimedia.org/wiki/Special:FilePath/Turkey%20Point%20Lighthouse.jpg,2005,,,,stateGov